{
"type": "FeatureCollection",
"name": "railway2",
"crs": { "type": "name", "properties": { "name": "urn:ogc:def:crs:OGC:1.3:CRS84" } },
"features": [
{ "type": "Feature", "properties": { "fid": 1, "name": "Научный парк (Олимпийская деревня)", "type": "существующая" }, "geometry": { "type": "Point", "coordinates": [ 39.946208168264519, 43.417727393995733 ] } },
{ "type": "Feature", "properties": { "fid": 2, "name": "Имеретинский курорт", "type": "существующая" }, "geometry": { "type": "Point", "coordinates": [ 39.974020555183685, 43.411856051765263 ] } },
{ "type": "Feature", "properties": { "fid": 3, "name": "Веселая", "type": "существующая" }, "geometry": { "type": "Point", "coordinates": [ 39.993017355534008, 43.401938999375567 ] } },
{ "type": "Feature", "properties": { "fid": 4, "name": "Орнитологический парк", "type": "планируемая (1 вариант)" }, "geometry": { "type": "Point", "coordinates": [ 39.990064002557965, 43.396071333939624 ] } },
{ "type": "Feature", "properties": { "fid": 5, "name": "Орнитологический парк", "type": "планируемая (2 вариант)" }, "geometry": { "type": "Point", "coordinates": [ 39.988527439887449, 43.396771149442138 ] } }
]
}
